[{"name": "\u81fa\u5357\u5e02\u6c38\u5eb7\u5340\u4e2d\u6b63\u5317\u8def\u6bb5\u5df7\u5f04\u865f\u53e3\u8207\u8526\u677e\u4e8c\u8857\u6bb5\u5df7\u5f04\u53e3", "lat": 23.042143032, "lng": 120.254767834}, {"name": "\u81fa\u5357\u5e02\u6c38\u5eb7\u5340\u4e2d\u83ef\u8def\u6bb5\u53e3\u4e2d\u592e\u8def", "lat": 23.023223032, "lng": 120.216047834}, {"name": "\u81fa\u5357\u5e02\u6c38\u5eb7\u5340\u4e2d\u83ef\u8def\u6bb5\u4e2d\u6b63\u5357\u8def\u53e3\u5df7\u5f04\u865f", "lat": 23.024103032, "lng": 120.218247834}, {"name": "\u81fa\u5357\u5e02\u6c38\u5eb7\u5340\u6bb5\u4e2d\u83ef\u8def\u6c38\u5eb7\u9678\u6a4b(\u5317\u5411\u5357)", "lat": 23.014423032, "lng": 120.230127834}, {"name": "\u81fa\u5357\u5e02\u6c38\u5eb7\u5340\u4e2d\u83ef\u8def\u6bb5\u53e3\u4e2d\u6b63\u5357\u8def", "lat": 23.023663032, "lng": 120.218247834}, {"name": "\u81fa\u5357\u5e02\u6c38\u5eb7\u5340\u4e2d\u6b63\u5357\u8def\u6bb5\u5df7\u5f04\u865f\u53e3\u8207\u4e2d\u6b63\u8def\u6bb5\u5df7\u5f04\u53e3", "lat": 23.041263032, "lng": 120.237607834}, {"name": "\u81fa\u5357\u5e02\u6c38\u5eb7\u5340\u4e2d\u83ef\u8def\u6bb5\u53e3\u5927\u6a4b\u4e8c\u8857", "lat": 23.018383032000003, "lng": 120.226607834}, {"name": "\u81fa\u5357\u5e02\u6c38\u5eb7\u5340\u4e2d\u83ef\u8def\u6bb5\u53e3\u4e2d\u6b63\u5357\u8def", "lat": 23.023663032, "lng": 120.218247834}, {"name": "\u81fa\u5357\u5e02\u6c38\u5eb7\u5340\u5fa9\u8208\u8def\u6bb5\u5df7\u5f04\u865f\u53e3\u8207\u9ad8\u901f\u4e8c\u8857\u6bb5\u5df7\u5f04\u53e3", "lat": 22.998583032, "lng": 120.247727834}, {"name": "\u81fa\u5357\u5e02\u6c38\u5eb7\u5340\u4e2d\u5c71\u5357\u8def\u6bb5\u4e2d\u5c71\u5357\u8def\u53e3\u5df7\u5f04\u865f", "lat": 23.018823032, "lng": 120.241127834}, {"name": "\u81fa\u5357\u5e02\u6c38\u5eb7\u5340\u4e2d\u83ef\u8def\u6bb5\u53e3\u5927\u6a4b\u4e8c\u8857", "lat": 23.018383032000003, "lng": 120.226607834}, {"name": "\u81fa\u5357\u5e02\u6c38\u5eb7\u5340\u4e2d\u83ef\u8def\u6bb5\u53e3\u4e2d\u6b63\u5357\u8def", "lat": 23.023663032, "lng": 120.218247834}, {"name": "\u81fa\u5357\u5e02\u6c38\u5eb7\u5340\u4e2d\u83ef\u8def\u6bb5\u53e3\u4e2d\u6b63\u5357\u8def", "lat": 23.023663032, "lng": 120.218247834}, {"name": "\u81fa\u5357\u5e02\u6c38\u5eb7\u5340\u4e2d\u83ef\u8def\u6bb5\u53e3\u4e2d\u6b63\u5357\u8def", "lat": 23.023663032, "lng": 120.218247834}, {"name": "\u81fa\u5357\u5e02\u6c38\u5eb7\u5340\u5927\u7063\u8def\u6bb5\u865f\u6587\u8ce2\u8857", "lat": 23.011783032, "lng": 120.271047834}, {"name": "\u81fa\u5357\u5e02\u6c38\u5eb7\u5340\u4e2d\u5c71\u5357\u8def\u6bb5\u865f\u4e2d\u5c71\u6771\u8def", "lat": 23.015303032, "lng": 120.235407834}, {"name": "\u81fa\u5357\u5e02\u6c38\u5eb7\u5340\u4e2d\u83ef\u8def\u6bb5\u83ef\u8208\u8857\u53e3\u5df7\u5f04\u865f", "lat": 23.000783032, "lng": 120.234967834}, {"name": "\u81fa\u5357\u5e02\u6c38\u5eb7\u5340\u4e2d\u83ef\u8def\u6bb5\u53e3\u5df7\u5f04140\u865f", "lat": 23.003423032, "lng": 120.235407834}, {"name": "\u81fa\u5357\u5e02\u6c38\u5eb7\u5340\u56db\u7dad\u8857\u6bb5\u5df7\u5f04\u865f\u53e3\u8207\u9f8d\u57d4\u8857\u6bb5\u5df7\u5f04\u53e3", "lat": 23.035543032, "lng": 120.251687834}, {"name": "\u81fa\u5357\u5e02\u6c38\u5eb7\u5340\u4e2d\u6b63\u5317\u8def\u6bb5\u53e3\u5df7\u5f04319\u865f", "lat": 23.042143032, "lng": 120.247727834}, {"name": "\u81fa\u5357\u5e02\u6c38\u5eb7\u5340\u4e2d\u6b63\u5357\u8def\u6bb5\u5df7\u5f04\u865f\u53e3\u8207\u4e2d\u6b63\u8def\u6bb5\u5df7\u5f04\u53e3", "lat": 23.041263032, "lng": 120.237607834}, {"name": "\u81fa\u5357\u5e02\u6c38\u5eb7\u5340\u6bb5\u4e2d\u83ef\u8def\u6c38\u5eb7\u9678\u6a4b(\u5317\u5411\u5357)", "lat": 23.014423032, "lng": 120.230127834}, {"name": "\u81fa\u5357\u5e02\u6c38\u5eb7\u5340\u5927\u7063\u4e00\u8857\u6bb5\u5df7\u5f04\u865f\u53e3\u8207\u5927\u7063\u4e8c\u8857\u6bb571\u5df7\u5f04\u53e3", "lat": 23.001223032, "lng": 120.266207834}, {"name": "\u81fa\u5357\u5e02\u6c38\u5eb7\u5340\u5927\u7063\u8def\u6bb5796", "lat": 23.000343032, "lng": 120.258727834}, {"name": "\u81fa\u5357\u5e02\u6c38\u5eb7\u5340\u6bb5\u5df7\u5f04\u865f\u4e2d\u83ef\u8def\u9678\u6a4b\u5357\u5f80\u5317(351180\u865f\u8def\u71c8)\u8207\u6bb5\u5df7\u5f04\u53e3", "lat": 23.020583032, "lng": 120.222647834}, {"name": "\u81fa\u5357\u5e02\u6c38\u5eb7\u5340\u4e2d\u83ef\u8def\u6bb5\u5df7\u5f04\u865f\u53e3\u8207\u5927\u6a4b\u4e00\u8857\u6bb5\u5df7\u5f04\u53e3", "lat": 23.017063032000003, "lng": 120.227927834}, {"name": "\u81fa\u5357\u5e02\u6c38\u5eb7\u5340\u9e7d\u6c34\u6eaa\u6cb3\u5824\u9053\u8def\u6bb5\u5df7\u5f04\u865f\u53e3\u8207\u6d32\u5c3e\u8857\u6bb5191\u5df711\u5f04\u53e3", "lat": 23.039943032, "lng": 120.226607834}, {"name": "\u81fa\u5357\u5e02\u6c38\u5eb7\u5340\u4e2d\u6b63\u5357\u8def\u6bb5\u5df7\u5f04\u865f\u53e3\u8207\u7532\u9802\u8def\u6bb5\u5df7\u5f04\u53e3", "lat": 23.019703032, "lng": 120.216047834}, {"name": "\u81fa\u5357\u5e02\u6c38\u5eb7\u5340\u5fa9\u8208\u8def\u6bb5\u5df7\u5f04\u865f\u53e3\u8207\u9ad8\u901f\u4e8c\u8857\u6bb5\u5df7\u5f04\u53e3", "lat": 22.998583032, "lng": 120.247727834}, {"name": "\u81fa\u5357\u5e02\u6c38\u5eb7\u5340\u52dd\u5229\u8857\u6bb51\u5df7\u5f0441\u865f\u8207\u6bb5\u5df7\u5f04\u53e3", "lat": 23.001223032, "lng": 120.229247834}, {"name": "\u81fa\u5357\u5e02\u6c38\u5eb7\u5340\u4e2d\u83ef\u8def\u6bb5\u53e3\u7532\u9802\u8def", "lat": 23.021463032, "lng": 120.221767834}, {"name": "\u81fa\u5357\u5e02\u6c38\u5eb7\u5340\u6c38\u5eb7(\u5947\u7f8e)\u9678\u6a4b\u6bb5\u53e3\u5df7\u5f04\u865f", "lat": 23.018823032, "lng": 120.226167834}, {"name": "\u81fa\u5357\u5e02\u6771\u5340\u6771\u5be7\u8def\u6bb5\u865f\u88d5\u8fb2\u8def", "lat": 22.988463032, "lng": 120.232767834}, {"name": "\u81fa\u5357\u5e02\u6771\u5340\u88d5\u8fb2\u8def\u6bb5\u5df7\u5f04\u865f\u53e3\u8207\u88d5\u4fe1\u8def\u6bb5\u5df7\u5f04\u53e3", "lat": 22.990223032000003, "lng": 120.245087834}, {"name": "\u81fa\u5357\u5e02\u6771\u5340\u88d5\u8fb2\u8def\u6bb5\u53e3\u88d5\u5fe0\u8def", "lat": 22.989343032, "lng": 120.241127834}, {"name": "\u81fa\u5357\u5e02\u6771\u5340\u9752\u5e74\u8def\u6bb5\u524d\u92d2\u8def\u53e3\u5df7\u5f04\u865f", "lat": 22.991543032000003, "lng": 120.212967834}, {"name": "\u81fa\u5357\u5e02\u6771\u5340\u6771\u9580\u8def2\u6bb5\u53e3\u5bcc\u5fb7\u8857", "lat": 22.985383032, "lng": 120.223087834}, {"name": "\u81fa\u5357\u5e02\u6771\u5340\u6797\u68ee\u8def1\u6bb5\u865f\u9577\u69ae\u8def1", "lat": 22.982743032, "lng": 120.217367834}, {"name": "\u81fa\u5357\u5e02\u6771\u5340\u4e2d\u83ef\u6771\u8def3\u6bb5\u5d07\u5fb7\u8def\u53e3\u5df7\u5f04\u865f", "lat": 22.975703032, "lng": 120.224847834}, {"name": "\u81fa\u5357\u5e02\u6771\u5340\u6771\u5be7\u8def\u6bb5\u53e3\u88d5\u8c50\u8857", "lat": 22.990223032000003, "lng": 120.227927834}, {"name": "\u81fa\u5357\u5e02\u6771\u5340\u4e2d\u83ef\u6771\u8def2\u6bb5\u5df7\u5f04\u865f\u53e3\u8207\u4e2d\u83ef\u6771\u8def2\u6bb5295\u5df7\u5f04\u53e3", "lat": 22.982743032, "lng": 120.230567834}, {"name": "\u81fa\u5357\u5e02\u6771\u5340\u5d07\u660e\u5341\u516b\u8857\u6bb5\u53e3\u5df7\u5f0432\u865f", "lat": 22.969983032, "lng": 120.226607834}, {"name": "\u81fa\u5357\u5e02\u6771\u5340\u6771\u5be7\u8def\u6bb5\u6771\u8208\u8def\u53e3\u5df7\u5f04\u865f", "lat": 22.990223032000003, "lng": 120.228367834}, {"name": "\u81fa\u5357\u5e02\u6771\u5340\u5d07\u5584\u4e8c\u8857\u6bb5\u53e3\u5df7\u5f0417\u865f", "lat": 22.977903032, "lng": 120.228807834}, {"name": "\u81fa\u5357\u5e02\u6771\u5340\u5d07\u5584\u8def\u6bb5467\u865f", "lat": 22.975263032, "lng": 120.228807834}, {"name": "\u81fa\u5357\u5e02\u6771\u5340\u4e2d\u83ef\u6771\u8def1\u6bb5\u53e3\u6771\u5e73\u8def", "lat": 22.994623032, "lng": 120.234087834}, {"name": "\u81fa\u5357\u5e02\u6771\u5340\u9577\u69ae\u8def3\u6bb5\u5df7\u5f04\u865f\u53e3\u8207\u5927\u5b78\u8def\u6bb5\u5df7\u5f04\u53e3", "lat": 22.995943032, "lng": 120.221767834}, {"name": "\u81fa\u5357\u5e02\u6771\u5340\u6bb5\u52dd\u5229\u8def\u5149\u5fa9\u6821\u5340\u5074\u9580", "lat": 22.997263032, "lng": 120.218247834}, {"name": "\u81fa\u5357\u5e02\u6771\u5340\u6797\u68ee\u8def2\u6bb5\u6797\u68ee\u8def\u53e3\u5df7\u5f04\u865f", "lat": 22.988903032, "lng": 120.223967834}, {"name": "\u81fa\u5357\u5e02\u6771\u5340\u4ec1\u548c\u8def\u6bb5112\u4e4b4", "lat": 22.971743032, "lng": 120.232767834}, {"name": "\u81fa\u5357\u5e02\u6771\u5340\u4e2d\u83ef\u6771\u8def1\u6bb5\u53e3\u51f1\u65cb\u8def", "lat": 22.992863032, "lng": 120.234087834}, {"name": "\u81fa\u5357\u5e02\u6771\u5340\u9752\u5e74\u8def\u6bb5273", "lat": 22.991543032000003, "lng": 120.213407834}, {"name": "\u81fa\u5357\u5e02\u5317\u5340\u4e2d\u83ef\u5317\u8def\u4e00\u6bb5\u6bb5\u6587\u8ce2\u8def\u53e3\u5df7\u5f04\u865f", "lat": 23.017943032, "lng": 120.193167834}, {"name": "\u81fa\u5357\u5e02\u5317\u5340\u6d77\u5b89\u8def\u6bb5\u53e3\u81e8\u5b89\u8def", "lat": 23.003863032, "lng": 120.199767834}, {"name": "\u81fa\u5357\u5e02\u5317\u5340\u4e2d\u83ef\u5317\u8def\u4e00\u6bb5\u6bb5\u6587\u8ce2\u8def\u53e3\u5df7\u5f04\u865f", "lat": 23.017943032, "lng": 120.193167834}, {"name": "\u81fa\u5357\u5e02\u5317\u5340\u516c\u5712\u8def\u6bb5\u53e3\u516c\u5712\u5317\u8def", "lat": 23.004743032, "lng": 120.210767834}, {"name": "\u81fa\u5357\u5e02\u5317\u5340\u80b2\u6210\u8def\u6bb5\u5df7\u5f04\u865f\u53e3\u8207\u6587\u6210\u4e94\u8def\u6bb5\u5df7\u5f04\u53e3", "lat": 23.019263032, "lng": 120.205927834}, {"name": "\u81fa\u5357\u5e02\u5317\u5340\u5317\u5fe0\u8857\u6bb5\u5d07\u5b89\u8857\u53e3\u5df7\u5f04\u865f", "lat": 23.000343032, "lng": 120.206367834}, {"name": "\u81fa\u5357\u5e02\u5317\u5340\u4e2d\u83ef\u5317\u8def\u4e8c\u6bb5\u6bb5\u5df7\u5f04\u865f\u53e3\u8207\u6d77\u5b89\u8def\u4e09\u6bb5\u6bb5\u5df7\u5f04\u53e3", "lat": 23.020143032, "lng": 120.199327834}, {"name": "\u81fa\u5357\u5e02\u5317\u5340\u958b\u5143\u8def\u6bb5\u958b\u5143\u8def\u53e3\u5df7\u5f04\u865f", "lat": 23.010463032, "lng": 120.224847834}, {"name": "\u81fa\u5357\u5e02\u5317\u5340\u5317\u5712\u8857\u6bb5\u6771\u5074\u5317\u5712\u8857109", "lat": 23.011343032, "lng": 120.223087834}, {"name": "\u81fa\u5357\u5e02\u5317\u5340\u6bb5\u5df7\u5f04\u865f\u5317\u5b89\u6a4b\u8207\u6bb5\u5df7\u5f04\u53e3", "lat": 23.022783032, "lng": 120.205487834}, {"name": "\u81fa\u5357\u5e02\u5317\u5340\u516c\u5712\u8def\u6bb5\u53e3\u548c\u7def\u8def", "lat": 23.010463032, "lng": 120.210767834}, {"name": "\u81fa\u5357\u5e02\u5317\u5340\u516c\u5712\u8def\u6bb5\u548c\u7def\u8def\u4e00\u6bb5\u53e3\u5df7\u5f04\u865f", "lat": 23.010903032, "lng": 120.210767834}, {"name": "\u81fa\u5357\u5e02\u5b89\u5357\u5340\u5b89\u548c\u8def\u6bb5\u5df7\u5f04\u865f\u6771\u5074\u8207\u5b89\u901a\u8def\u6bb5\u5df7\u5f04\u53e3", "lat": 23.029823032, "lng": 120.213407834}, {"name": "\u81fa\u5357\u5e02\u5b89\u5357\u5340\u5b89\u660e\u8def\u6bb5\u5b89\u901a\u8def\u53e3\u5df7\u5f04\u865f", "lat": 23.023663032, "lng": 120.173367834}, {"name": "\u81fa\u5357\u5e02\u5b89\u5357\u5340\u5b89\u4e2d\u8def3\u6bb5\u897f\u5074\u5b89\u4e2d\u8def4", "lat": 23.050503032, "lng": 120.173367834}, {"name": "\u81fa\u5357\u5e02\u5b89\u5357\u5340\u672c\u7530\u8def\u6bb5\u53e3\u5de5\u696d\u4e8c\u8def", "lat": 23.038183032, "lng": 120.155327834}, {"name": "\u81fa\u5357\u5e02\u5b89\u5357\u5340\u5317\u5b89\u8def2\u6bb5\u90e1\u5b89\u8def\u53e3\u5df7\u5f04\u865f", "lat": 23.028503032, "lng": 120.205047834}, {"name": "\u81fa\u5357\u5e02\u5b89\u5357\u5340\u5b89\u548c\u8def1\u6bb5220\u5df7\u5f04\u865f\u5317\u5074\u8207\u6bb5\u5df7\u5f04\u53e3", "lat": 23.030703032, "lng": 120.212967834}, {"name": "\u81fa\u5357\u5e02\u5b89\u5357\u5340\u5317\u5b89\u8def\u6bb5\u6148\u5b89\u8def\u53e3\u5df7\u5f04\u865f", "lat": 23.032903032, "lng": 120.204167834}, {"name": "\u81fa\u5357\u5e02\u5b89\u5357\u5340\u5b89\u548c\u8def2\u6bb5\u53e3\u5df7\u5f04267\u865f", "lat": 23.043023032, "lng": 120.216047834}, {"name": "\u81fa\u5357\u5e02\u4e2d\u897f\u5340\u4e2d\u5c71\u8def\u6bb5\u6c11\u65cf\u8def\u53e3\u5df7\u5f04\u865f", "lat": 22.994623032, "lng": 120.208567834}, {"name": "\u81fa\u5357\u5e02\u4e2d\u897f\u5340\u897f\u9580\u8def\u6bb5\u5e9c\u524d\u8def\u53e3\u5df7\u5f04\u865f", "lat": 22.990223032000003, "lng": 120.198007834}, {"name": "\u81fa\u5357\u5e02\u4e2d\u897f\u5340\u6c11\u751f\u7da0\u5712\u5713\u74b0\u6bb5\u4e2d\u6b63\u8def\u53e3\u5df7\u5f04\u865f", "lat": 22.992423032, "lng": 120.204607834}, {"name": "\u81fa\u5357\u5e02\u4e2d\u897f\u5340\u4e2d\u83ef\u897f\u8def2\u6bb5\u53e3\u5df7\u5f04420\u865f", "lat": 23.000343032, "lng": 120.187007834}, {"name": "\u81fa\u5357\u5e02\u4e2d\u897f\u5340\u6c11\u6b0a\u8def4\u6bb5\u83ef\u5e73\u8def\u53e3\u5df7\u5f04\u865f", "lat": 22.999463032, "lng": 120.176007834}, {"name": "\u81fa\u5357\u5e02\u4e2d\u897f\u5340\u6c11\u65cf\u8def2\u6bb563", "lat": 22.994183032, "lng": 120.209887834}, {"name": "\u81fa\u5357\u5e02\u4e2d\u897f\u5340\u4e2d\u5c71\u8def\u6bb5\u5df7\u5f04174\u865f\u8207\u6bb5\u5df7\u5f04\u53e3", "lat": 22.995943032, "lng": 120.211207834}, {"name": "\u81fa\u5357\u5e02\u6771\u5340\u5317\u9580\u8def1\u6bb5\u53e3\u885b\u6c11\u8857", "lat": 22.992863032, "lng": 120.211647834}, {"name": "\u81fa\u5357\u5e02\u4e2d\u897f\u5340\u6c11\u751f\u8def\u6bb5\u865f\u6d77\u5b89\u8def", "lat": 22.995063032, "lng": 120.196687834}, {"name": "\u81fa\u5357\u5e02\u4e2d\u897f\u5340\u4e2d\u6b63\u8def\u6bb5\u53e3\u570b\u83ef\u8857", "lat": 22.992863032, "lng": 120.197567834}, {"name": "\u81fa\u5357\u5e02\u4e2d\u897f\u5340\u897f\u9580\u8def\u6bb5\u865f\u548c\u610f\u8def", "lat": 22.988463032, "lng": 120.197567834}, {"name": "\u81fa\u5357\u5e02\u4e2d\u897f\u5340\u6c11\u751f\u8def2\u6bb5\u53e3\u5df7\u5f04166\u865f", "lat": 22.996383032, "lng": 120.194487834}, {"name": "\u81fa\u5357\u5e02\u4e2d\u897f\u5340\u897f\u9580\u8def\u6bb5\u5e9c\u524d\u8def\u53e3\u5df7\u5f04\u865f", "lat": 22.991103032, "lng": 120.197567834}, {"name": "\u81fa\u5357\u5e02\u4e2d\u897f\u5340\u6c11\u65cf\u8def2\u6bb576\u4e4b5\u865f", "lat": 22.994623032, "lng": 120.209007834}, {"name": "\u81fa\u5357\u5e02\u5357\u5340\u5065\u5eb7\u8def1\u6bb5\u5357\u9580\u8def\u53e3\u5df7\u5f04\u865f", "lat": 22.981423032, "lng": 120.203727834}, {"name": "\u81fa\u5357\u5e02\u5357\u5340\u540c\u8208\u8def\u6bb5\u540c\u8208\u8def\u53e3\u5df7\u5f04\u865f", "lat": 22.926423032, "lng": 120.189647834}, {"name": "\u81fa\u5357\u5e02\u5357\u5340\u4e2d\u83ef\u897f\u8def\u6bb5\u53e3\u65b0\u5b5d\u8def", "lat": 22.977903032, "lng": 120.184807834}, {"name": "\u81fa\u5357\u5e02\u5357\u5340\u6bb5\u5df7\u5f04\u865f\u6ff1\u5357\u8def\u8207\u4e2d\u83ef\u5357\u8def\u4e8c\u6bb5315\u5df712\u5f04\u53e3\u8207\u6bb5\u5df7\u5f04\u53e3", "lat": 22.959863032, "lng": 120.183927834}, {"name": "\u81fa\u5357\u5e02\u5357\u5340\u4e2d\u83ef\u897f\u8def1\u6bb5\u53e3\u5df7\u5f04271\u865f", "lat": 22.985383032, "lng": 120.186127834}, {"name": "\u81fa\u5357\u5e02\u5357\u5340\u91d1\u83ef\u8def1\u6bb5\u5df7\u5f04129-5\u865f\u8207\u6bb5\u5df7\u5f04\u53e3", "lat": 22.964703032000003, "lng": 120.189647834}, {"name": "\u81fa\u5357\u5e02\u4ec1\u5fb7\u5340\u6bb5\u6210\u529f\u91cc\u53f086\u7dda\u6771\u5411\u531d\u9053", "lat": 22.928183032, "lng": 120.220447834}, {"name": "\u81fa\u5357\u5e02\u4ec1\u5fb7\u5340\u6bb5\u53f0\u4e00\u7dda\u8207\u4e2d\u6b63\u897f\u8def\u8def\u53e3", "lat": 22.918503032, "lng": 120.225727834}, {"name": "\u81fa\u5357\u5e02\u5b89\u5e73\u5340\u6587\u5e73\u8def\u6bb5\u53e3\u5efa\u5e73\u4e03\u8857", "lat": 22.988903032, "lng": 120.178207834}, {"name": "\u81fa\u5357\u5e02\u5b89\u5e73\u5340\u5b89\u5e73\u8def\u6bb5\u865f\u5b89\u5e73\u8def426", "lat": 22.998143032, "lng": 120.174247834}, {"name": "\u81fa\u5357\u5e02\u5b89\u5e73\u5340\u5b89\u5317\u8def\u6bb5\u6c11\u6b0a\u8def\u53e3\u5df7\u5f04\u865f", "lat": 23.002543032, "lng": 120.164127834}, {"name": "\u81fa\u5357\u5e02\u5b89\u5e73\u5340\u5065\u5eb7\u8def3\u6bb5\u5df7\u5f04\u865f\u53e3\u8207\u5065\u5eb7\u4e00\u8857\u6bb5\u5df7\u5f04\u53e3", "lat": 22.982743032, "lng": 120.179967834}, {"name": "\u81fa\u5357\u5e02\u5b89\u5e73\u5340\u5efa\u5e73\u5341\u4e00\u8857\u6bb5\u53e3\u5df7\u5f0456\u865f", "lat": 22.995063032, "lng": 120.183487834}, {"name": "\u81fa\u5357\u5e02\u65b0\u71df\u5340\u4e09\u6c11\u8def\u6bb5\u53e3\u4e09\u4ed9\u91cc\u6c11\u6b0a\u8def", "lat": 23.093183032, "lng": 120.312407834}, {"name": "\u81fa\u5357\u5e02\u65b0\u71df\u5340\u5fe0\u653f\u91cc\u4e2d\u6b63\u8def\u6bb5\u865f\u6c11\u6cbb\u8def", "lat": 23.093183032, "lng": 120.316367834}, {"name": "\u81fa\u5357\u5e02\u65b0\u71df\u5340\u5fa9\u8208\u8def\u6bb5\u897f\u5074\u6c11\u6cbb\u8def", "lat": 23.093183032, "lng": 120.302727834}, {"name": "\u81fa\u5357\u5e02\u65b0\u71df\u5340\u6bb5\u65b0\u71df\u91ab\u9662\u6025\u8a3a\u5165\u53e3\u65c1", "lat": 23.093183032, "lng": 120.313287834}, {"name": "\u81fa\u5357\u5e02\u65b0\u71df\u5340\u6c11\u6b0a\u91cc\u4e2d\u83ef\u8def\u6bb5\u53e3\u6c11\u6b0a\u91cc\u6c11\u6b0a\u8def", "lat": 23.093183032, "lng": 120.312847834}, {"name": "\u81fa\u5357\u5e02\u65b0\u71df\u5340\u8208\u696d\u91cc\u4e2d\u8208\u8def\u6bb5\u865f\u5ee0\u524d\u8857", "lat": 23.093183032, "lng": 120.316807834}, {"name": "\u81fa\u5357\u5e02\u65b0\u71df\u5340\u6c11\u751f\u91cc\u6c11\u751f\u8def\u6bb5\u865f\u516c\u5712\u8def1", "lat": 23.093183032, "lng": 120.308887834}, {"name": "\u81fa\u5357\u5e02\u65b0\u71df\u5340\u6bb5\u65b0\u71df\u91ab\u9662\u6025\u8a3a\u5165\u53e3\u65c1", "lat": 23.093183032, "lng": 120.313287834}, {"name": "\u81fa\u5357\u5e02\u65b0\u71df\u5340\u8208\u696d\u91cc\u4e2d\u8208\u8def\u6bb5\u865f\u5ee0\u524d\u8857", "lat": 23.093183032, "lng": 120.316807834}, {"name": "\u81fa\u5357\u5e02\u65b0\u71df\u5340\u6bb5\u65b0\u71df\u91ab\u9662\u6025\u8a3a\u5165\u53e3\u65c1", "lat": 23.093183032, "lng": 120.313287834}, {"name": "\u81fa\u5357\u5e02\u65b0\u5e02\u5340\u5927\u71df\u91cc\u7701\u9053\u81fa1\u7dda\u6bb5\u53e3\u5927\u71df\u91cc\u5340\u9053\u5357140\u7dda", "lat": 23.093183032, "lng": 120.313727834}, {"name": "\u81fa\u5357\u5e02\u65b0\u71df\u5340\u5fe0\u653f\u91cc\u4e2d\u6b63\u8def\u6bb5\u865f\u6c11\u6cbb\u8def", "lat": 23.093183032, "lng": 120.316367834}, {"name": "\u81fa\u5357\u5e02\u65b0\u5e02\u5340\u5927\u71df\u91cc\u7701\u9053\u81fa1\u7dda\u6bb5\u53e3\u5927\u71df\u91cc\u5340\u9053\u5357140\u7dda", "lat": 23.093183032, "lng": 120.313727834}, {"name": "\u81fa\u5357\u5e02\u65b0\u71df\u5340\u5fe0\u653f\u91cc\u4e2d\u6b63\u8def\u6bb5\u865f\u6c11\u6cbb\u8def", "lat": 23.093183032, "lng": 120.316367834}, {"name": "\u81fa\u5357\u5e02\u65b0\u5e02\u5340\u5927\u71df\u91cc\u7701\u9053\u81fa1\u7dda\u6bb5\u53e3\u5927\u71df\u91cc\u5340\u9053\u5357140\u7dda", "lat": 23.093183032, "lng": 120.313727834}, {"name": "\u81fa\u5357\u5e02\u65b0\u71df\u5340\u5fe0\u653f\u91cc\u4e2d\u6b63\u8def\u6bb5\u865f\u6c11\u6cbb\u8def", "lat": 23.093183032, "lng": 120.316367834}, {"name": "\u81fa\u5357\u5e02\u65b0\u71df\u5340\u5fe0\u653f\u91cc\u4e2d\u6b63\u8def\u6bb5\u865f\u6c11\u6cbb\u8def", "lat": 23.093183032, "lng": 120.316367834}, {"name": "\u81fa\u5357\u5e02\u65b0\u71df\u5340\u5fe0\u653f\u91cc\u4e2d\u6b63\u8def\u6bb5\u865f\u6c11\u6cbb\u8def", "lat": 23.093183032, "lng": 120.316367834}, {"name": "\u81fa\u5357\u5e02\u67f3\u71df\u5340\u67f3\u71df\u8def2\u6bb5332", "lat": 23.093183032, "lng": 120.311967834}, {"name": "\u81fa\u5357\u5e02\u65b0\u71df\u5340\u5fe0\u653f\u91cc\u4e2d\u6b63\u8def\u6bb5\u865f\u6c11\u6cbb\u8def", "lat": 23.093183032, "lng": 120.316367834}, {"name": "\u81fa\u5357\u5e02\u5584\u5316\u5340\u5c0f\u65b0\u91cc\u7701\u9053\u81fa1\u7dda\u6bb5\u6210\u529f\u8def\u53e3\u5df7\u5f04\u865f", "lat": 23.093183032, "lng": 120.318567834}, {"name": "\u81fa\u5357\u5e02\u65b0\u71df\u5340\u4e09\u4ed9\u91cc\u4e09\u8208\u8857\u6bb5\u5df7\u5f04\u865f\u53e3\u8207\u6b66\u660c\u8857\u6bb5\u5df7\u5f04\u53e3", "lat": 23.093183032, "lng": 120.310647834}, {"name": "\u81fa\u5357\u5e02\u65b0\u71df\u5340\u6bb5\u65b0\u71df\u91ab\u9662\u6025\u8a3a\u5165\u53e3\u65c1", "lat": 23.093183032, "lng": 120.313287834}, {"name": "\u81fa\u5357\u5e02\u65b0\u71df\u5340\u6c11\u751f\u91cc\u6c11\u6cbb\u8def\u6bb5\u6c11\u751f\u8def\u53e3\u5df7\u5f04\u865f", "lat": 23.093183032, "lng": 120.308007834}, {"name": "\u81fa\u5357\u5e02\u65b0\u71df\u5340\u6c11\u751f\u91cc\u6c11\u751f\u8def\u6bb5\u865f\u516c\u5712\u8def1", "lat": 23.093183032, "lng": 120.308887834}, {"name": "\u81fa\u5357\u5e02\u65b0\u71df\u5340\u6c11\u69ae\u91cc\u5fa9\u8208\u8def\u6bb5\u5fa9\u8208\u8def\u53e3\u5df7\u5f04\u865f", "lat": 23.093183032, "lng": 120.305807834}, {"name": "\u81fa\u5357\u5e02\u65b0\u5e02\u5340\u5927\u71df\u91cc\u7701\u9053\u81fa1\u7dda\u6bb5\u53e3\u5927\u71df\u91cc\u5340\u9053\u5357140\u7dda", "lat": 23.093183032, "lng": 120.313727834}, {"name": "\u81fa\u5357\u5e02\u65b0\u71df\u5340\u5fe0\u653f\u91cc\u4e2d\u6b63\u8def\u6bb5\u865f\u6c11\u6cbb\u8def", "lat": 23.093183032, "lng": 120.316367834}, {"name": "\u81fa\u5357\u5e02\u65b0\u71df\u5340\u9577\u69ae\u8def\u6bb5\u6771\u8208\u8def\u53e3\u5df7\u5f04\u865f", "lat": 23.093183032, "lng": 120.322967834}, {"name": "\u81fa\u5357\u5e02\u65b0\u71df\u5340\u6bb5\u65b0\u71df\u91ab\u9662\u6025\u8a3a\u5165\u53e3\u65c1", "lat": 23.093183032, "lng": 120.313287834}, {"name": "\u81fa\u5357\u5e02\u65b0\u71df\u5340\u4e09\u6c11\u8def\u6bb5\u53e3\u4e09\u4ed9\u91cc\u6c11\u6b0a\u8def", "lat": 23.093183032, "lng": 120.312407834}, {"name": "\u81fa\u5357\u5e02\u65b0\u71df\u5340\u9577\u69ae\u8def\u6bb5\u6771\u8208\u8def\u53e3\u5df7\u5f04\u865f", "lat": 23.093183032, "lng": 120.322967834}, {"name": "\u81fa\u5357\u5e02\u65b0\u71df\u5340\u8208\u696d\u91cc\u4e2d\u8208\u8def\u6bb5\u865f\u5ee0\u524d\u8857", "lat": 23.093183032, "lng": 120.316807834}, {"name": "\u81fa\u5357\u5e02\u65b0\u71df\u5340\u9577\u69ae\u8def\u6bb5\u6771\u8208\u8def\u53e3\u5df7\u5f04\u865f", "lat": 23.093183032, "lng": 120.322967834}, {"name": "\u81fa\u5357\u5e02\u65b0\u5e02\u5340\u5927\u71df\u91cc\u7701\u9053\u81fa1\u7dda\u6bb5\u53e3\u5927\u71df\u91cc\u5340\u9053\u5357140\u7dda", "lat": 23.093183032, "lng": 120.313727834}, {"name": "\u81fa\u5357\u5e02\u65b0\u71df\u5340\u5fe0\u653f\u91cc\u4e2d\u6b63\u8def\u6bb5\u865f\u6c11\u6cbb\u8def", "lat": 23.093183032, "lng": 120.316367834}, {"name": "\u81fa\u5357\u5e02\u65b0\u71df\u5340\u5fe0\u653f\u91cc\u4e2d\u6b63\u8def\u6bb5\u865f\u6c11\u6cbb\u8def", "lat": 23.093183032, "lng": 120.316367834}, {"name": "\u81fa\u5357\u5e02\u6b78\u4ec1\u5340\u5357\u8208\u91cc\u5357\u4e01\u8def\u6bb5\u5927\u5fb7\u8def\u53e3\u5df7\u5f04\u865f", "lat": 22.973503032, "lng": 120.279407834}, {"name": "\u81fa\u5357\u5e02\u5584\u5316\u5340\u5c0f\u65b0\u91cc\u7701\u9053\u81fa1\u7dda\u6bb5\u6210\u529f\u8def\u53e3\u5df7\u5f04\u865f", "lat": 23.093183032, "lng": 120.318567834}, {"name": "\u81fa\u5357\u5e02\u5584\u5316\u5340\u6bb5\u53e3\u5df7\u5f04\u865f", "lat": 23.093183032, "lng": 120.294367834}, {"name": "\u81fa\u5357\u5e02\u5584\u5316\u5340\u9032\u5b78\u8def\u6bb5\u53e3\u6587\u6b63\u91cc\u5149\u5fa9\u8def", "lat": 23.093183032, "lng": 120.288647834}, {"name": "\u81fa\u5357\u5e02\u5584\u5316\u5340\u7701\u9053\u81fa19\u7532\u7dda\u6bb5\u53e3\u4ec0\u4e43\u91cc\u5340\u9053\u5357126\u7dda", "lat": 23.093183032, "lng": 120.288207834}, {"name": "\u81fa\u5357\u5e02\u5584\u5316\u5340\u4e2d\u6b63\u8def\u6bb5\u53e3\u6587\u660c\u91cc\u5927\u540c\u8def", "lat": 23.093183032, "lng": 120.293927834}, {"name": "\u81fa\u5357\u5e02\u5584\u5316\u5340\u4e2d\u6b63\u8def\u6bb5\u53e3\u6587\u660c\u91cc\u5927\u540c\u8def", "lat": 23.093183032, "lng": 120.293927834}, {"name": "\u81fa\u5357\u5e02\u5584\u5316\u5340\u4e2d\u6b63\u8def\u6bb5\u53e3\u6587\u660c\u91cc\u5927\u540c\u8def", "lat": 23.093183032, "lng": 120.293927834}, {"name": "\u81fa\u5357\u5e02\u5584\u5316\u5340\u5357\u95dc\u91cc\u4e09\u6c11\u8def\u6bb5\u5df7\u5f04\u865f\u53e3\u8207\u6587\u660c\u8def\u6bb5\u5df7\u5f04\u53e3", "lat": 23.093183032, "lng": 120.286887834}, {"name": "\u81fa\u5357\u5e02\u5584\u5316\u5340\u6c38\u798f\u8def\u6bb5\u53e3\u6587\u660c\u91cc\u5927\u540c\u8def", "lat": 23.093183032, "lng": 120.291287834}, {"name": "\u81fa\u5357\u5e02\u5584\u5316\u5340\u7701\u9053\u81fa19\u7532\u7dda\u6bb50\u6eaa\u7f8e\u91cc\u53f019\u7532\u7dda", "lat": 23.093183032, "lng": 120.278967834}, {"name": "\u81fa\u5357\u5e02\u5584\u5316\u5340\u548c\u5e73\u8def\u6bb5\u53e3\u5149\u6587\u91cc\u6c11\u751f\u8def", "lat": 23.093183032, "lng": 120.298327834}, {"name": "\u81fa\u5357\u5e02\u5584\u5316\u5340\u5149\u6587\u91cc\u5149\u83ef\u8def\u6bb535\u5df7\u5f0442\u865f\u8207\u6bb5\u5df7\u5f04\u53e3", "lat": 23.093183032, "lng": 120.302287834}, {"name": "\u81fa\u5357\u5e02\u4e0b\u71df\u5340\u8305\u71df\u91cc\u4e2d\u71df\u6bb5\u5df7\u5f04972\u865f\u8207\u6bb5\u5df7\u5f04\u53e3", "lat": 23.093183032, "lng": 120.277647834}, {"name": "\u81fa\u5357\u5e02\u65b0\u71df\u5340\u5609\u82b3\u91cc\u5fa9\u8208\u8def\u6bb5\u865f\u5609\u82b3\u8857", "lat": 23.093183032, "lng": 120.285127834}, {"name": "\u81fa\u5357\u5e02\u5584\u5316\u5340\u5149\u6587\u91cc\u6c11\u65cf\u8def\u6bb5\u5df7\u5f04\u865f\u53e3\u8207\u6a39\u4eba\u8def\u6bb5\u5df7\u5f04\u53e3", "lat": 23.093183032, "lng": 120.300527834}, {"name": "\u81fa\u5357\u5e02\u65b0\u5e02\u5340\u6c38\u5c31\u91cc\u7701\u9053\u81fa1\u7dda\u6bb5\u65b0\u6e2f\u793e\u5927\u9053\u53e3\u5df7\u5f04\u865f", "lat": 23.062823032, "lng": 120.282047834}, {"name": "\u81fa\u5357\u5e02\u4f73\u91cc\u5340\u6bb5", "lat": 23.093183032, "lng": 120.184367834}, {"name": "\u81fa\u5357\u5e02\u4f73\u91cc\u5340\u4ec1\u611b\u8def\u6bb5\u53e3\u93ae\u5c71\u91cc\u4e2d\u8208\u8857", "lat": 23.093183032, "lng": 120.181287834}, {"name": "\u81fa\u5357\u5e02\u4f73\u91cc\u5340\u516d\u5b89\u91cc\u5ef6\u5e73\u8def\u6bb5\u5df7\u5f04\u865f\u9644\u8fd1\u8207\u5b89\u5317\u8def\u6bb5\u5df7\u5f04\u53e3", "lat": 23.093183032, "lng": 120.178647834}, {"name": "\u81fa\u5357\u5e02\u4f73\u91cc\u5340\u516d\u5b89\u91cc\u5ef6\u5e73\u8def\u6bb5\u53e3\u516d\u5b89\u91cc\u4f73\u5317\u8def", "lat": 23.093183032, "lng": 120.179087834}, {"name": "\u81fa\u5357\u5e02\u4f73\u91cc\u5340\u516d\u5b89\u91cc\u5ef6\u5e73\u8def\u6bb5\u5df7\u5f04\u865f\u9644\u8fd1\u8207\u5b89\u5317\u8def\u6bb5\u5df7\u5f04\u53e3", "lat": 23.093183032, "lng": 120.178647834}, {"name": "\u81fa\u5357\u5e02\u4f73\u91cc\u5340\u5ef6\u5e73\u8def\u6bb5\u53e3\u548c\u5e73\u8857", "lat": 23.093183032, "lng": 120.178207834}, {"name": "\u81fa\u5357\u5e02\u4f73\u91cc\u5340\u6771\u5be7\u91cc\u4e2d\u5c71\u8def\u6bb5\u865f\u548c\u5e73\u8857", "lat": 23.093183032, "lng": 120.176887834}, {"name": "\u81fa\u5357\u5e02\u4f73\u91cc\u5340\u5ef6\u5e73\u8def\u6bb5\u53e3\u548c\u5e73\u8857", "lat": 23.093183032, "lng": 120.178207834}, {"name": "\u81fa\u5357\u5e02\u4f73\u91cc\u5340\u5ef6\u5e73\u8def\u6bb5\u53e3\u548c\u5e73\u8857", "lat": 23.093183032, "lng": 120.178207834}, {"name": "\u81fa\u5357\u5e02\u4f73\u91cc\u5340\u516d\u5b89\u91cc\u5ef6\u5e73\u8def\u6bb5\u5df7\u5f04\u865f\u9644\u8fd1\u8207\u5b89\u5317\u8def\u6bb5\u5df7\u5f04\u53e3", "lat": 23.093183032, "lng": 120.178647834}, {"name": "\u81fa\u5357\u5e02\u4f73\u91cc\u5340\u5ef6\u5e73\u8def\u6bb5\u53e3\u548c\u5e73\u8857", "lat": 23.093183032, "lng": 120.178207834}, {"name": "\u81fa\u5357\u5e02\u4f73\u91cc\u5340\u5ef6\u5e73\u8def\u6bb5\u53e3\u548c\u5e73\u8857", "lat": 23.093183032, "lng": 120.178207834}, {"name": "\u81fa\u5357\u5e02\u4f73\u91cc\u5340\u65b0\u751f\u8def\u6bb5\u53e3\u5b89\u5357\u8def", "lat": 23.093183032, "lng": 120.171167834}, {"name": "\u81fa\u5357\u5e02\u4f73\u91cc\u5340\u6771\u5be7\u91cc\u4e2d\u5c71\u8def\u6bb5\u865f\u548c\u5e73\u8857", "lat": 23.093183032, "lng": 120.176887834}, {"name": "\u81fa\u5357\u5e02\u4f73\u91cc\u5340\u4e2d\u5c71\u8def\u6bb5\u53e3\u5e73\u7b49\u8857", "lat": 23.093183032, "lng": 120.177327834}, {"name": "\u81fa\u5357\u5e02\u4f73\u91cc\u5340\u5ef6\u5e73\u8def\u6bb5\u53e3\u548c\u5e73\u8857", "lat": 23.093183032, "lng": 120.178207834}, {"name": "\u81fa\u5357\u5e02\u4f73\u91cc\u5340\u6771\u5be7\u91cc\u4e2d\u5c71\u8def\u6bb5\u865f\u548c\u5e73\u8857", "lat": 23.093183032, "lng": 120.176887834}, {"name": "\u81fa\u5357\u5e02\u4f73\u91cc\u5340\u5ef6\u5e73\u8def\u6bb5\u53e3\u548c\u5e73\u8857", "lat": 23.093183032, "lng": 120.178207834}, {"name": "\u81fa\u5357\u5e02\u4f73\u91cc\u5340\u516d\u5b89\u91cc\u5ef6\u5e73\u8def\u6bb5\u4f73\u5317\u8def\u53e3\u5df7\u5f04\u865f", "lat": 22.983623032, "lng": 120.178647834}, {"name": "\u81fa\u5357\u5e02\u4f73\u91cc\u5340\u6bb5", "lat": 23.093183032, "lng": 120.179527834}, {"name": "\u81fa\u5357\u5e02\u4f73\u91cc\u5340\u5ef6\u5e73\u8def\u6bb5\u53e3\u548c\u5e73\u8857", "lat": 23.093183032, "lng": 120.178207834}, {"name": "\u81fa\u5357\u5e02\u4f73\u91cc\u5340\u5b89\u897f\u91cc\u5149\u83ef\u8857\u6bb5\u5df7\u5f04\u865f\u53e3\u8207\u80b2\u5584\u8857\u6bb5\u5df7\u5f04\u53e3", "lat": 23.093183032, "lng": 120.168967834}, {"name": "\u81fa\u5357\u5e02\u4f73\u91cc\u5340\u5efa\u5357\u91cc\u5149\u5fa9\u8def\u6bb5\u865f\u65b0\u751f\u8def", "lat": 23.093183032, "lng": 120.174687834}, {"name": "\u81fa\u5357\u5e02\u4f73\u91cc\u5340\u6bb5", "lat": 23.093183032, "lng": 120.188767834}, {"name": "\u81fa\u5357\u5e02\u4f73\u91cc\u5340\u4e2d\u5c71\u8def\u6bb5\u53e3\u5e73\u7b49\u8857", "lat": 23.093183032, "lng": 120.177327834}, {"name": "\u81fa\u5357\u5e02\u5b89\u5b9a\u5340\u8607\u539d\u91cc\u8607\u539d\u6bb5\u53e3\u5df7\u5f04333-26\u865f", "lat": 23.093183032, "lng": 120.248167834}, {"name": "\u81fa\u5357\u5e02\u9ebb\u8c46\u5340\u4e2d\u5c71\u8def\u6bb5140\u4e4b3\u53e3", "lat": 23.093183032, "lng": 120.242007834}, {"name": "\u81fa\u5357\u5e02\u5b89\u5b9a\u5340\u6bb5\u5df7\u5f04\u865f\u8207\u6bb5\u5df7\u5f04\u53e3", "lat": 23.093183032, "lng": 120.247287834}, {"name": "\u81fa\u5357\u5e02\u5b89\u5b9a\u5340\u6e2f\u53e3\u91cc\u5340\u9053\u5357134\u7dda\u6bb5\u865f\u5e02\u9053178\u7dda", "lat": 23.093183032, "lng": 120.229247834}, {"name": "\u81fa\u5357\u5e02\u9ebb\u8c46\u5340\u65b0\u8208\u91cc\u81ea\u7531\u8def\u6bb5\u5149\u5fa9\u8def\u53e3\u5df7\u5f04\u865f", "lat": 23.093183032, "lng": 120.244207834}, {"name": "\u81fa\u5357\u5e02\u9ebb\u8c46\u5340\u4e2d\u8208\u91cc\u4e09\u6c11\u8def\u6bb5\u4e2d\u8208\u8857\u53e3\u5df7\u5f04\u865f", "lat": 23.093183032, "lng": 120.245967834}, {"name": "\u81fa\u5357\u5e02\u65b0\u5316\u5340\u6bb5\u90a3\u62d4\u91cc\u90a3\u62d4\u6797151\u865f\u65c1", "lat": 23.069863032, "lng": 120.354647834}, {"name": "\u81fa\u5357\u5e02\u9ebb\u8c46\u5340\u5927\u57d5\u91cc\u535a\u611b\u8def\u6bb5\u53e3\u5fa9\u8208\u8857", "lat": 23.093183032, "lng": 120.250807834}, {"name": "\u81fa\u5357\u5e02\u5b89\u5b9a\u5340\u65b0\u5409\u6bb5\u5df7\u5f04146-6\u865f\u9644\u8fd1\u8207\u6bb5\u5df7\u5f04\u53e3", "lat": 23.089223032, "lng": 120.208567834}, {"name": "\u81fa\u5357\u5e02\u5b89\u5b9a\u5340\u7701\u9053\u81fa19\u7dda\u6bb5\u6d77\u5bee132-1310\u9644\u8fd1", "lat": 23.093183032, "lng": 120.208567834}, {"name": "\u81fa\u5357\u5e02\u897f\u6e2f\u5340\u6176\u5b89\u91cc\u4e2d\u5c71\u8def\u6bb5\u5df7\u5f04235\u865f\u8207\u6bb5\u5df7\u5f04\u53e3", "lat": 23.093183032, "lng": 120.203287834}, {"name": "\u81fa\u5357\u5e02\u897f\u6e2f\u5340\u6bb5", "lat": 23.093183032, "lng": 120.203727834}, {"name": "\u81fa\u5357\u5e02\u897f\u6e2f\u5340\u6bb5", "lat": 23.093183032, "lng": 120.204167834}, {"name": "\u81fa\u5357\u5e02\u897f\u6e2f\u5340\u6bb5", "lat": 23.093183032, "lng": 120.203727834}, {"name": "\u81fa\u5357\u5e02\u897f\u6e2f\u5340\u6176\u5b89\u91cc\u65b0\u8208\u8857\u6bb5\u5df7\u5f04\u865f\u53e3\u8207\u65b0\u8208\u8857\u6bb515\u5df7\u5f04\u53e3", "lat": 23.093183032, "lng": 120.201527834}, {"name": "\u81fa\u5357\u5e02\u897f\u6e2f\u5340\u6176\u5b89\u91cc\u7701\u9053\u81fa19\u7dda\u6bb5\u5df7\u5f04\u865f\u53e3\u8207\u5340\u9053\u535734\u7dda\u6bb5\u5df7\u5f04\u53e3", "lat": 23.093183032, "lng": 120.202847834}, {"name": "\u81fa\u5357\u5e02\u897f\u6e2f\u5340\u6bb5", "lat": 23.093183032, "lng": 120.203727834}, {"name": "\u81fa\u5357\u5e02\u897f\u6e2f\u5340\u6176\u5b89\u91cc\u7701\u9053\u81fa19\u7dda\u6bb5\u5df7\u5f04\u865f\u53e3\u8207\u5340\u9053\u535734\u7dda\u6bb5\u5df7\u5f04\u53e3", "lat": 23.093183032, "lng": 120.202847834}, {"name": "\u81fa\u5357\u5e02\u65b0\u71df\u5340\u6c11\u6b0a\u91cc\u4e2d\u83ef\u8def\u6bb5\u53e3\u6c11\u6b0a\u91cc\u6c11\u6b0a\u8def", "lat": 23.093183032, "lng": 120.312847834}, {"name": "\u81fa\u5357\u5e02\u5b98\u7530\u5340\u6e21\u62d4\u91cc\u7701\u9053\u81fa1\u7dda\u6bb5\u5e02\u9053171\u7dda\u53e3\u5df7\u5f04\u865f", "lat": 23.093183032, "lng": 120.338367834}, {"name": "\u81fa\u5357\u5e02\u65b0\u5e02\u5340\u5927\u793e\u91cc\u5340\u9053\u5357140\u7dda\u6bb5\u5927\u793e485\u865f0", "lat": 23.093183032, "lng": 120.326927834}, {"name": "\u81fa\u5357\u5e02\u9e7d\u6c34\u5340\u6a4b\u5357\u91cc\u884c\u660c\u8def\u6bb5\u865f\u6a4b\u5357\u8857", "lat": 23.093183032, "lng": 120.267967834}, {"name": "\u81fa\u5357\u5e02\u767d\u6cb3\u5340\u6bb5", "lat": 23.093183032, "lng": 120.427687834}, {"name": "\u81fa\u5357\u5e02\u767d\u6cb3\u5340\u6bb5", "lat": 23.093183032, "lng": 120.427687834}, {"name": "\u81fa\u5357\u5e02\u767d\u6cb3\u5340\u6bb5", "lat": 23.093183032, "lng": 120.427687834}, {"name": "\u81fa\u5357\u5e02\u767d\u6cb3\u5340\u6bb5", "lat": 23.093183032, "lng": 120.427687834}, {"name": "\u81fa\u5357\u5e02\u767d\u6cb3\u5340\u6bb5", "lat": 23.093183032, "lng": 120.427687834}, {"name": "\u81fa\u5357\u5e02\u767d\u6cb3\u5340\u6bb5", "lat": 23.093183032, "lng": 120.427687834}, {"name": "\u81fa\u5357\u5e02\u767d\u6cb3\u5340\u6bb5", "lat": 23.093183032, "lng": 120.427687834}, {"name": "\u81fa\u5357\u5e02\u767d\u6cb3\u5340\u6bb5", "lat": 23.093183032, "lng": 120.427687834}, {"name": "\u81fa\u5357\u5e02\u5b78\u7532\u5340\u660e\u5b9c\u91cc\u4e2d\u6b63\u8def\u6bb5\u5df7\u5f04\u865f\u53e3\u8207\u4e2d\u5c71\u8def\u6bb5\u5df7\u5f04\u53e3", "lat": 23.093183032, "lng": 120.180407834}, {"name": "\u81fa\u5357\u5e02\u4e03\u80a1\u5340\u6bb5", "lat": 23.093183032, "lng": 120.131567834}, {"name": "\u81fa\u5357\u5e02\u516d\u7532\u5340\u6bb5\u53e3\u5df7\u5f04\u865f\u4e2d\u793e\u91cc\u6797\u9cf3\u71df281\u865f\u524d", "lat": 23.041703032, "lng": 120.310207834}, {"name": "\u81fa\u5357\u5e02\u5c07\u8ecd\u5340\u9be4\u9bd3\u91cc\u5340\u9053\u535726\u7dda\u6bb5\u53e3\u9be4\u9bd3\u91cc\u5e02\u9053173\u7532\u7dda", "lat": 23.093183032, "lng": 120.097247834}, {"name": "\u81fa\u5357\u5e02\u5c71\u4e0a\u5340\u6bb5\u865f\u53f020\u7dda19K\u8655", "lat": 23.073383032, "lng": 120.359487834}, {"name": "\u81fa\u5357\u5e02\u5c71\u4e0a\u5340\u6bb5\u53e3\u5df7\u5f04\u865f\u5e02\u9053178\u7532\u7dda4\u516c\u91cc\u8655", "lat": 22.909703032, "lng": 120.359047834}, {"name": "\u81fa\u5357\u5e02\u767d\u6cb3\u5340\u6bb5", "lat": 23.093183032, "lng": 120.427687834}, {"name": "\u81fa\u5357\u5e02\u767d\u6cb3\u5340\u6bb5", "lat": 23.093183032, "lng": 120.427687834}, {"name": "\u81fa\u5357\u5e02\u767d\u6cb3\u5340\u6bb5", "lat": 23.093183032, "lng": 120.427687834}, {"name": "\u81fa\u5357\u5e02\u767d\u6cb3\u5340\u6bb5", "lat": 23.093183032, "lng": 120.427687834}, {"name": "\u81fa\u5357\u5e02\u767d\u6cb3\u5340\u6bb5", "lat": 23.093183032, "lng": 120.427687834}, {"name": "\u81fa\u5357\u5e02\u767d\u6cb3\u5340\u6bb5", "lat": 23.093183032, "lng": 120.427687834}, {"name": "\u81fa\u5357\u5e02\u767d\u6cb3\u5340\u6bb5", "lat": 23.093183032, "lng": 120.427687834}, {"name": "\u81fa\u5357\u5e02\u767d\u6cb3\u5340\u6bb5", "lat": 23.093183032, "lng": 120.427687834}, {"name": "\u81fa\u5357\u5e02\u767d\u6cb3\u5340\u6bb5", "lat": 23.093183032, "lng": 120.427687834}]